{
"type": "FeatureCollection",
"name": "B45bus",
"crs": { "type": "name", "properties": { "name": "urn:ogc:def:crs:OGC:1.3:CRS84" } },
"features": [
{ "type": "Feature", "properties": { "Destination": "RIDGEWOOD TERM via MYRTLE", "Latitude": 40.695675, "Longitude": -73.946506, "Stop Name": "MYRTLE AV\/TOMPKINS AV", "Stop Status": "at stop", "VehicleRef": "MTA NYCT_4447" }, "geometry": { "type": "Point", "coordinates": [ -73.946506, 40.695675 ] } },
{ "type": "Feature", "properties": { "Destination": "DNTWN BKLYN JAY ST via MYRTLE", "Latitude": 40.696899, "Longitude": -73.935936, "Stop Name": "MYRTLE AV\/BROADWAY", "Stop Status": "at stop", "VehicleRef": "MTA NYCT_7273" }, "geometry": { "type": "Point", "coordinates": [ -73.935936, 40.696899 ] } },
{ "type": "Feature", "properties": { "Destination": "RIDGEWOOD TERM via MYRTLE", "Latitude": 40.693098, "Longitude": -73.969242, "Stop Name": "MYRTLE AV\/VANDERBILT AV", "Stop Status": "at stop", "VehicleRef": "MTA NYCT_7717" }, "geometry": { "type": "Point", "coordinates": [ -73.969242, 40.693098 ] } },
{ "type": "Feature", "properties": { "Destination": "RIDGEWOOD TERM via MYRTLE", "Latitude": 40.694382, "Longitude": -73.957773, "Stop Name": "MYRTLE AV\/FRANKLIN AV", "Stop Status": "at stop", "VehicleRef": "MTA NYCT_7274" }, "geometry": { "type": "Point", "coordinates": [ -73.957773, 40.694382 ] } },
{ "type": "Feature", "properties": { "Destination": "DNTWN BKLYN JAY ST via MYRTLE", "Latitude": 40.694406, "Longitude": -73.957542, "Stop Name": "MYRTLE AV\/FRANKLIN AV", "Stop Status": "approaching", "VehicleRef": "MTA NYCT_6562" }, "geometry": { "type": "Point", "coordinates": [ -73.957542, 40.694406 ] } },
{ "type": "Feature", "properties": { "Destination": "DNTWN BKLYN JAY ST via MYRTLE", "Latitude": 40.694422, "Longitude": -73.957376, "Stop Name": "MYRTLE AV\/FRANKLIN AV", "Stop Status": "approaching", "VehicleRef": "MTA NYCT_7290" }, "geometry": { "type": "Point", "coordinates": [ -73.957376, 40.694422 ] } },
{ "type": "Feature", "properties": { "Destination": "RIDGEWOOD TERM via MYRTLE", "Latitude": 40.697258, "Longitude": -73.932694, "Stop Name": "MYRTLE AV\/BUSHWICK AV", "Stop Status": "approaching", "VehicleRef": "MTA NYCT_6523" }, "geometry": { "type": "Point", "coordinates": [ -73.932694, 40.697258 ] } },
{ "type": "Feature", "properties": { "Destination": "DNTWN BKLYN JAY ST via MYRTLE", "Latitude": 40.699251, "Longitude": -73.914008, "Stop Name": "MYRTLE AV\/IRVING AV", "Stop Status": "approaching", "VehicleRef": "MTA NYCT_6572" }, "geometry": { "type": "Point", "coordinates": [ -73.914008, 40.699251 ] } },
{ "type": "Feature", "properties": { "Destination": "RIDGEWOOD TERM via MYRTLE", "Latitude": 40.700879, "Longitude": -73.910842, "Stop Name": "PALMETTO ST\/ST NICHOLAS AV", "Stop Status": "approaching", "VehicleRef": "MTA NYCT_6595" }, "geometry": { "type": "Point", "coordinates": [ -73.910842, 40.700879 ] } },
{ "type": "Feature", "properties": { "Destination": "DNTWN BKLYN JAY ST via MYRTLE", "Latitude": 40.696523, "Longitude": -73.939242, "Stop Name": "MYRTLE AV\/MARCUS GARVEY BL", "Stop Status": "< 1 stop away", "VehicleRef": "MTA NYCT_7812" }, "geometry": { "type": "Point", "coordinates": [ -73.939242, 40.696523 ] } }
]
}
